$GNRMC,080912.00,A,3725.77992,N,12208.00135,W,0.007,,131224,12.59,E,D,V*6A
$GNVTG,,T,,M,0.007,N,0.013,K,D*3D
$GNGGA,080912.00,3725.77992,N,12208.00135,W,2,12,0.54,27.1,M,-30.0,M,,0000*46
$GNGSA,A,3,23,29,10,48,16,26,18,46,15,,,,1.15,0.54,1.01,1*0E
$GNGSA,A,3,76,86,71,72,85,87,70,,,,,,1.15,0.54,1.01,2*0F
$GNGSA,A,3,30,05,15,02,27,34,09,36,,,,,1.15,0.54,1.01,3*09
$GPGSV,4,1,13,05,17,046,10,10,22,224,35,13,22,063,24,15,43,096,40,0*68
$GPGSV,4,2,13,16,26,301,27,18,66,353,41,23,63,227,24,25,03,181,,0*65
$GPGSV,4,3,13,26,30,266,36,27,06,315,,29,52,131,42,46,46,191,40,0*60
$GPGSV,4,4,13,48,47,185,37,0*50
$GLGSV,3,1,10,70,32,038,27,71,61,106,32,72,31,173,30,76,14,238,32,0*78
$GLGSV,3,2,10,77,21,283,24,78,05,338,,85,23,090,28,86,57,025,29,0*78
$GLGSV,3,3,10,87,33,318,28,,,,34,0*40
$GAGSV,3,1,10,02,14,186,31,03,16,162,,05,35,109,34,06,06,034,,0*77
$GAGSV,3,2,10,09,20,052,28,15,37,289,36,27,28,301,25,30,41,238,38,0*7A
$GAGSV,3,3,10,34,64,013,40,36,25,071,33,0*72
$GNGLL,3725.77992,N,12208.00135,W,080912.00,A,D*6D
$GNRMC,080913.00,A,3725.77992,N,12208.00141,W,0.011,,131224,12.59,E,D,V*6F
$GNVTG,,T,,M,0.011,N,0.021,K,D*3B
$GNGGA,080913.00,3725.77992,N,12208.00141,W,2,12,0.54,27.3,M,-30.0,M,,0000*46
$GNGSA,A,3,23,29,10,48,16,26,18,46,15,,,,1.15,0.54,1.01,1*0E
$GNGSA,A,3,76,86,71,72,85,87,70,,,,,,1.15,0.54,1.01,2*0F
$GNGSA,A,3,30,05,15,02,27,34,09,36,,,,,1.15,0.54,1.01,3*09
$GPGSV,4,1,13,05,17,046,10,10,22,224,35,13,22,063,24,15,43,096,40,0*68
$GPGSV,4,2,13,16,26,301,27,18,66,353,41,23,63,227,23,25,03,181,,0*62
$GPGSV,4,3,13,26,30,266,36,27,06,315,,29,52,131,42,46,46,191,40,0*60
$GPGSV,4,4,13,48,47,185,37,0*50
$GLGSV,3,1,10,70,32,038,27,71,61,106,31,72,31,173,31,76,14,238,32,0*7A
$GLGSV,3,2,10,77,21,283,24,78,05,338,,85,23,090,28,86,57,025,29,0*78
$GLGSV,3,3,10,87,33,318,28,,,,34,0*40
$GAGSV,3,1,10,02,14,186,31,03,16,162,,05,35,109,33,06,06,034,,0*70
$GAGSV,3,2,10,09,20,052,28,15,37,289,36,27,29,300,26,30,41,238,38,0*79
$GAGSV,3,3,10,34,64,013,40,36,25,071,33,0*72
$GNGLL,3725.77992,N,12208.00141,W,080913.00,A,D*6F
$GNRMC,080914.00,A,3725.77992,N,12208.00147,W,0.006,,131224,12.59,E,D,V*68
$GNVTG,,T,,M,0.006,N,0.011,K,D*3E
$GNGGA,080914.00,3725.77992,N,12208.00147,W,2,12,0.54,27.3,M,-30.0,M,,0000*47
$GNGSA,A,3,23,29,10,48,16,26,18,46,15,,,,1.15,0.54,1.01,1*0E
$GNGSA,A,3,76,86,71,72,85,87,70,,,,,,1.15,0.54,1.01,2*0F
$GNGSA,A,3,30,05,15,02,27,34,09,36,,,,,1.15,0.54,1.01,3*09
$GPGSV,4,1,13,05,17,046,13,10,22,224,35,13,22,063,24,15,43,096,40,0*6B
$GPGSV,4,2,13,16,26,301,27,18,66,353,41,23,63,227,23,25,03,181,,0*62
$GPGSV,4,3,13,26,30,266,37,27,06,315,,29,52,131,42,46,46,191,40,0*61
$GPGSV,4,4,13,48,47,185,37,0*50
$GLGSV,3,1,10,70,32,038,26,71,61,106,31,72,31,173,30,76,14,238,32,0*7A
$GLGSV,3,2,10,77,21,283,24,78,05,338,,85,23,090,28,86,57,025,30,0*70
$GLGSV,3,3,10,87,33,318,28,,,,34,0*40
$GAGSV,3,1,10,02,14,186,31,03,16,162,,05,35,109,33,06,06,034,,0*70
$GAGSV,3,2,10,09,20,052,28,15,37,289,36,27,29,300,26,30,41,238,38,0*79
$GAGSV,3,3,10,34,64,013,40,36,25,071,33,0*72
$GNGLL,3725.77992,N,12208.00147,W,080914.00,A,D*6E
$GNRMC,080915.00,A,3725.77992,N,12208.00151,W,0.005,,131224,12.59,E,D,V*6D
$GNVTG,,T,,M,0.005,N,0.008,K,D*35
$GNGGA,080915.00,3725.77992,N,12208.00151,W,2,12,0.54,27.4,M,-30.0,M,,0000*46
$GNGSA,A,3,23,29,10,48,16,26,18,46,15,,,,1.15,0.54,1.01,1*0E
$GNGSA,A,3,76,86,71,72,85,87,70,,,,,,1.15,0.54,1.01,2*0F
$GNGSA,A,3,30,05,15,02,27,34,09,36,,,,,1.15,0.54,1.01,3*09
$GPGSV,4,1,13,05,17,046,14,10,22,224,35,13,22,063,24,15,43,096,40,0*6C
$GPGSV,4,2,13,16,26,301,27,18,66,353,41,23,63,227,22,25,03,181,,0*63
$GPGSV,4,3,13,26,30,266,37,27,06,315,,29,52,131,42,46,46,191,39,0*6F
$GPGSV,4,4,13,48,47,185,37,0*50
$GLGSV,3,1,10,70,32,038,26,71,61,106,30,72,31,173,31,76,14,238,31,0*79
$GLGSV,3,2,10,77,21,283,24,78,05,338,,85,23,090,27,86,57,025,30,0*7F
$GLGSV,3,3,10,87,33,318,28,,,,34,0*40
$GAGSV,3,1,10,02,14,186,31,03,16,162,,05,35,109,33,06,06,034,,0*70
$GAGSV,3,2,10,09,20,052,28,15,37,289,36,27,29,300,26,30,40,237,38,0*77
$GAGSV,3,3,10,34,64,013,40,36,25,071,34,0*75
$GNGLL,3725.77992,N,12208.00151,W,080915.00,A,D*68
$GNRMC,080916.00,A,3725.77993,N,12208.00155,W,0.015,,131224,12.59,E,D,V*6A
$GNVTG,,T,,M,0.015,N,0.028,K,D*36
$GNGGA,080916.00,3725.77993,N,12208.00155,W,2,12,0.54,27.6,M,-30.0,M,,0000*42
$GNGSA,A,3,23,29,10,48,16,26,18,46,15,,,,1.15,0.54,1.01,1*0E
$GNGSA,A,3,76,86,71,72,85,87,70,,,,,,1.15,0.54,1.01,2*0F
$GNGSA,A,3,30,05,15,02,27,34,09,36,,,,,1.15,0.54,1.01,3*09
$GPGSV,4,1,13,05,17,046,10,10,22,224,35,13,22,063,25,15,43,096,40,0*69
$GPGSV,4,2,13,16,26,301,27,18,66,353,41,23,63,227,22,25,03,181,,0*63
$GPGSV,4,3,13,26,30,266,37,27,06,315,,29,52,131,42,46,46,191,40,0*61
$GPGSV,4,4,13,48,47,185,38,0*5F
$GLGSV,3,1,10,70,32,038,26,71,61,106,31,72,31,173,31,76,14,238,32,0*7B
$GLGSV,3,2,10,77,21,283,24,78,05,338,,85,23,090,27,86,57,025,30,0*7F
$GLGSV,3,3,10,87,33,318,27,,,,34,0*4F
$GAGSV,3,1,10,02,14,186,30,03,16,162,,05,35,109,33,06,06,034,,0*71
$GAGSV,3,2,10,09,20,052,28,15,37,289,36,27,29,300,26,30,40,237,38,0*77
$GAGSV,3,3,10,34,64,013,40,36,25,071,34,0*75
$GNGLL,3725.77993,N,12208.00155,W,080916.00,A,D*6E
$GNRMC,080917.00,A,3725.77993,N,12208.00158,W,0.012,,131224,12.59,E,D,V*61
$GNVTG,,T,,M,0.012,N,0.022,K,D*3B
$GNGGA,080917.00,3725.77993,N,12208.00158,W,2,12,0.53,27.8,M,-30.0,M,,0000*47
$GNGSA,A,3,13,29,10,48,16,26,18,46,15,,,,1.15,0.53,1.02,1*09
$GNGSA,A,3,76,77,86,71,72,85,87,70,,,,,1.15,0.53,1.02,2*0B
$GNGSA,A,3,30,05,15,02,34,09,36,,,,,,1.15,0.53,1.02,3*08
$GPGSV,4,1,13,05,17,046,07,10,22,224,35,13,22,063,25,15,43,096,40,0*6F
$GPGSV,4,2,13,16,26,301,27,18,66,353,41,23,63,227,21,25,03,181,,0*60
$GPGSV,4,3,13,26,30,266,37,27,06,315,,29,52,131,42,46,46,191,40,0*61
$GPGSV,4,4,13,48,47,185,37,0*50
$GLGSV,3,1,10,70,32,038,26,71,61,106,31,72,31,173,31,76,14,238,32,0*7B
$GLGSV,3,2,10,77,21,283,23,78,05,338,,85,23,090,27,86,57,025,30,0*78
$GLGSV,3,3,10,87,33,318,27,,,,34,0*4F
$GAGSV,3,1,10,02,14,186,31,03,16,162,,05,35,109,34,06,06,034,,0*77
$GAGSV,3,2,10,09,20,052,28,15,37,289,36,27,29,300,26,30,40,237,38,0*77
$GAGSV,3,3,10,34,64,013,40,36,25,071,34,0*75
$GNGLL,3725.77993,N,12208.00158,W,080917.00,A,D*62
$GNRMC,080918.00,A,3725.77996,N,12208.00162,W,0.031,,131224,12.59,E,D,V*63
$GNVTG,,T,,M,0.031,N,0.058,K,D*37
$GNGGA,080918.00,3725.77996,N,12208.00162,W,2,12,0.53,27.9,M,-30.0,M,,0000*45
$GNGSA,A,3,13,29,10,48,16,26,18,46,15,,,,1.15,0.53,1.02,1*09
$GNGSA,A,3,76,77,86,71,72,85,87,70,,,,,1.15,0.53,1.02,2*0B
$GNGSA,A,3,30,05,15,02,34,09,36,,,,,,1.15,0.53,1.02,3*08
$GPGSV,4,1,13,05,17,046,11,10,22,224,35,13,22,063,26,15,43,096,40,0*6B
$GPGSV,4,2,13,16,26,301,27,18,66,353,41,23,63,227,20,25,03,181,,0*61
$GPGSV,4,3,13,26,30,266,37,27,06,315,,29,52,131,42,46,46,191,40,0*61
$GPGSV,4,4,13,48,47,185,37,0*50
$GLGSV,3,1,10,70,32,038,26,71,61,106,30,72,31,173,31,76,14,238,32,0*7A
$GLGSV,3,2,10,77,21,283,23,78,05,338,,85,23,090,27,86,57,025,30,0*78
$GLGSV,3,3,10,87,33,318,27,,,,34,0*4F
$GAGSV,3,1,10,02,14,186,31,03,16,162,,05,35,109,33,06,06,034,,0*70
$GAGSV,3,2,10,09,20,052,28,15,37,289,36,27,29,300,26,30,40,237,38,0*77
$GAGSV,3,3,10,34,64,014,40,36,25,071,34,0*72
$GNGLL,3725.77996,N,12208.00162,W,080918.00,A,D*61
$GNRMC,080919.00,A,3725.77998,N,12208.00167,W,0.007,,131224,12.59,E,D,V*6C
$GNVTG,,T,,M,0.007,N,0.013,K,D*3D
$GNGGA,080919.00,3725.77998,N,12208.00167,W,2,12,0.53,28.1,M,-30.0,M,,0000*48
$GNGSA,A,3,13,29,10,48,16,26,18,46,15,,,,1.15,0.53,1.02,1*09
$GNGSA,A,3,76,77,86,71,72,85,87,70,,,,,1.15,0.53,1.02,2*0B
$GNGSA,A,3,30,05,15,02,34,09,36,,,,,,1.15,0.53,1.02,3*08
$GPGSV,4,1,13,05,17,046,09,10,22,224,35,13,22,063,26,15,43,096,40,0*62
$GPGSV,4,2,13,16,26,301,27,18,66,353,41,23,63,227,19,25,03,181,,0*6B
$GPGSV,4,3,13,26,30,266,37,27,06,315,,29,52,131,42,46,46,191,40,0*61
$GPGSV,4,4,13,48,47,185,37,0*50
$GLGSV,3,1,10,70,32,038,26,71,61,106,30,72,31,173,31,76,14,238,32,0*7A
$GLGSV,3,2,10,77,21,283,23,78,05,338,,85,23,090,27,86,57,025,30,0*78
$GLGSV,3,3,10,87,33,318,27,,,,34,0*4F
$GAGSV,3,1,10,02,14,186,31,03,16,162,,05,35,109,33,06,06,034,,0*70
$GAGSV,3,2,10,09,20,052,28,15,37,289,36,27,29,300,26,30,40,237,38,0*77
$GAGSV,3,3,10,34,64,014,40,36,25,071,33,0*75
$GNGLL,3725.77998,N,12208.00167,W,080919.00,A,D*6B
$GNRMC,080920.00,A,3725.78005,N,12208.00168,W,0.010,,131224,12.59,E,D,V*6D
$GNVTG,,T,,M,0.010,N,0.019,K,D*31
$GNGGA,080920.00,3725.78005,N,12208.00168,W,2,12,0.53,28.1,M,-30.0,M,,0000*4F
$GNGSA,A,3,13,29,10,48,16,26,18,46,15,,,,1.15,0.53,1.02,1*09
$GNGSA,A,3,76,77,86,71,72,85,87,70,,,,,1.15,0.53,1.02,2*0B
$GNGSA,A,3,30,05,15,02,34,09,36,,,,,,1.15,0.53,1.02,3*08
$GPGSV,4,1,13,05,17,046,07,10,22,224,35,13,22,063,26,15,43,096,39,0*62
$GPGSV,4,2,13,16,26,301,28,18,66,353,41,23,63,227,19,25,03,181,,0*64
$GPGSV,4,3,13,26,30,266,37,27,06,315,,29,52,131,42,46,46,191,40,0*61
$GPGSV,4,4,13,48,47,185,37,0*50
$GLGSV,3,1,10,70,32,038,26,71,61,106,29,72,31,173,31,76,14,238,32,0*72
$GLGSV,3,2,10,77,21,283,23,78,05,338,,85,23,090,27,86,57,025,30,0*78
$GLGSV,3,3,10,87,33,318,26,,,,34,0*4E
$GAGSV,3,1,10,02,14,186,31,03,16,162,,05,35,109,34,06,06,034,,0*77
$GAGSV,3,2,10,09,20,052,27,15,37,289,36,27,29,300,26,30,40,237,38,0*78
$GAGSV,3,3,10,34,64,014,40,36,25,071,33,0*75
$GNGLL,3725.78005,N,12208.00168,W,080920.00,A,D*6C
$GNRMC,080921.00,A,3725.78011,N,12208.00168,W,0.009,,131224,12.59,E,D,V*61
$GNVTG,,T,,M,0.009,N,0.016,K,D*36
$GNGGA,080921.00,3725.78011,N,12208.00168,W,2,12,0.53,28.2,M,-30.0,M,,0000*48
$GNGSA,A,3,13,29,10,48,16,26,18,46,15,,,,1.15,0.53,1.02,1*09
$GNGSA,A,3,76,77,86,71,72,85,87,70,,,,,1.15,0.53,1.02,2*0B
$GNGSA,A,3,30,05,15,02,34,09,36,,,,,,1.15,0.53,1.02,3*08
$GPGSV,4,1,13,05,17,046,08,10,22,224,35,13,22,063,26,15,43,096,39,0*6D
$GPGSV,4,2,13,16,26,301,28,18,66,353,40,23,63,227,18,25,03,181,,0*64
$GPGSV,4,3,13,26,30,266,38,27,06,315,,29,52,131,42,46,46,191,40,0*6E
$GPGSV,4,4,13,48,47,185,37,0*50
$GLGSV,3,1,10,70,32,038,26,71,61,106,29,72,31,173,31,76,14,238,32,0*72
$GLGSV,3,2,10,77,21,283,23,78,05,338,,85,23,090,27,86,57,025,30,0*78
$GLGSV,3,3,10,87,33,318,26,,,,34,0*4E
$GAGSV,3,1,10,02,14,186,31,03,16,162,,05,35,109,34,06,06,034,,0*77
$GAGSV,3,2,10,09,20,052,28,15,37,289,36,27,29,300,26,30,40,237,38,0*77
$GAGSV,3,3,10,34,64,014,40,36,25,071,33,0*75
$GNGLL,3725.78011,N,12208.00168,W,080921.00,A,D*68
$GNRMC,080922.00,A,3725.78017,N,12208.00169,W,0.017,,131224,12.59,E,D,V*6A
$GNVTG,,T,,M,0.017,N,0.031,K,D*3C
$GNGGA,080922.00,3725.78017,N,12208.00169,W,2,12,0.53,28.5,M,-30.0,M,,0000*4B
$GNGSA,A,3,13,29,10,48,16,26,18,46,15,,,,1.15,0.53,1.02,1*09
$GNGSA,A,3,76,77,86,71,72,85,87,70,,,,,1.15,0.53,1.02,2*0B
$GNGSA,A,3,30,05,15,02,34,09,36,,,,,,1.15,0.53,1.02,3*08
$GPGSV,4,1,13,05,17,046,08,10,22,224,35,13,22,063,26,15,43,096,39,0*6D
$GPGSV,4,2,13,16,26,301,28,18,66,353,40,23,63,227,18,25,03,181,,0*64
$GPGSV,4,3,13,26,30,266,38,27,06,315,,29,52,131,42,46,46,191,40,0*6E
$GPGSV,4,4,13,48,47,185,37,0*50
$GLGSV,3,1,10,70,32,038,26,71,61,106,29,72,31,173,31,76,14,238,32,0*72
$GLGSV,3,2,10,77,21,283,22,78,05,338,,85,23,090,27,86,57,025,31,0*78
$GLGSV,3,3,10,87,33,318,26,,,,34,0*4E
$GAGSV,3,1,10,02,14,186,31,03,16,162,,05,35,109,33,06,06,034,,0*70
$GAGSV,3,2,10,09,20,052,28,15,37,289,36,27,29,300,27,30,40,237,38,0*76
$GAGSV,3,3,10,34,64,014,40,36,25,071,33,0*75
$GNGLL,3725.78017,N,12208.00169,W,080922.00,A,D*6C
$GNRMC,080923.00,A,3725.78024,N,12208.00170,W,0.022,,131224,12.59,E,D,V*65
$GNVTG,,T,,M,0.022,N,0.040,K,D*3C
$GNGGA,080923.00,3725.78024,N,12208.00170,W,2,12,0.53,28.7,M,-30.0,M,,0000*40
$GNGSA,A,3,13,29,10,48,16,26,18,46,15,,,,1.17,0.53,1.04,1*0D
$GNGSA,A,3,76,86,71,72,85,87,70,,,,,,1.17,0.53,1.04,2*0F
$GNGSA,A,3,30,05,15,27,02,34,09,36,,,,,1.17,0.53,1.04,3*09
$GPGSV,4,1,13,05,17,046,06,10,22,224,36,13,22,063,26,15,43,096,39,0*60
$GPGSV,4,2,13,16,26,301,28,18,66,353,40,23,63,227,19,25,03,181,,0*65
$GPGSV,4,3,13,26,30,266,38,27,06,315,,29,52,131,41,46,46,191,40,0*6D
$GPGSV,4,4,13,48,47,185,37,0*50
$GLGSV,3,1,10,70,32,038,26,71,61,106,29,72,31,173,31,76,14,238,31,0*71
$GLGSV,3,2,10,77,21,283,22,78,05,338,,85,23,090,27,86,57,025,31,0*78
$GLGSV,3,3,10,87,33,318,27,,,,34,0*4F
$GAGSV,3,1,10,02,14,186,31,03,16,162,,05,35,109,33,06,06,034,,0*70
$GAGSV,3,2,10,09,20,052,27,15,37,289,36,27,29,300,27,30,40,237,38,0*79
$GAGSV,3,3,10,34,64,014,40,36,25,071,33,0*75
$GNGLL,3725.78024,N,12208.00170,W,080923.00,A,D*65
$GNRMC,080924.00,A,3725.78029,N,12208.00169,W,0.012,,131224,12.59,E,D,V*64
$GNVTG,,T,,M,0.012,N,0.022,K,D*3B
$GNGGA,080924.00,3725.78029,N,12208.00169,W,2,12,0.53,28.9,M,-30.0,M,,0000*4C
$GNGSA,A,3,13,29,10,48,16,26,18,46,15,,,,1.17,0.53,1.04,1*0D
$GNGSA,A,3,76,86,71,72,85,87,70,,,,,,1.17,0.53,1.04,2*0F
$GNGSA,A,3,30,05,15,27,02,34,09,36,,,,,1.17,0.53,1.04,3*09
$GPGSV,4,1,13,05,17,046,11,10,22,224,36,13,22,063,26,15,43,096,39,0*66
$GPGSV,4,2,13,16,26,301,28,18,66,353,40,23,63,227,18,25,03,181,,0*64
$GPGSV,4,3,13,26,30,266,38,27,06,315,,29,52,131,41,46,46,191,40,0*6D
$GPGSV,4,4,13,48,47,185,37,0*50
$GLGSV,3,1,10,70,32,038,26,71,61,106,29,72,31,173,31,76,14,238,31,0*71
$GLGSV,3,2,10,77,21,283,21,78,05,338,,85,23,090,27,86,57,025,31,0*7B
$GLGSV,3,3,10,87,33,318,27,,,,34,0*4F
$GAGSV,3,1,10,02,14,186,31,03,16,162,,05,35,109,33,06,06,034,,0*70
$GAGSV,3,2,10,09,20,052,27,15,37,289,36,27,29,300,27,30,40,237,38,0*79
$GAGSV,3,3,10,34,64,014,40,36,25,071,33,0*75
$GNGLL,3725.78029,N,12208.00169,W,080924.00,A,D*67
$GNRMC,080925.00,A,3725.78034,N,12208.00167,W,0.012,,131224,12.59,E,D,V*67
$GNVTG,,T,,M,0.012,N,0.022,K,D*3B
$GNGGA,080925.00,3725.78034,N,12208.00167,W,2,12,0.53,29.1,M,-30.0,M,,0000*46
$GNGSA,A,3,13,29,10,48,16,26,18,46,15,,,,1.17,0.53,1.04,1*0D
$GNGSA,A,3,76,86,71,72,85,87,70,,,,,,1.17,0.53,1.04,2*0F
$GNGSA,A,3,30,05,15,27,02,34,09,36,,,,,1.17,0.53,1.04,3*09
$GPGSV,4,1,13,05,17,046,09,10,22,224,36,13,22,063,26,15,43,096,39,0*6F
$GPGSV,4,2,13,16,26,301,29,18,66,353,40,23,63,227,18,25,03,181,,0*65
$GPGSV,4,3,13,26,30,266,38,27,06,315,,29,52,131,41,46,46,191,40,0*6D
$GPGSV,4,4,13,48,47,185,37,0*50
$GLGSV,3,1,10,70,32,038,26,71,61,106,29,72,31,173,31,76,14,238,31,0*71
$GLGSV,3,2,10,77,21,283,21,78,05,338,,85,23,090,27,86,57,025,31,0*7B
$GLGSV,3,3,10,87,33,318,27,,,,34,0*4F
$GAGSV,3,1,10,02,14,186,31,03,16,162,,05,35,109,33,06,06,034,,0*70
$GAGSV,3,2,10,09,20,052,27,15,37,289,36,27,29,300,27,30,40,237,38,0*79
$GAGSV,3,3,10,34,64,014,40,36,25,071,33,0*75
$GNGLL,3725.78034,N,12208.00167,W,080925.00,A,D*64
$GNRMC,080926.00,A,3725.78037,N,12208.00165,W,0.023,,131224,12.59,E,D,V*67
$GNVTG,,T,,M,0.023,N,0.042,K,D*3F
$GNGGA,080926.00,3725.78037,N,12208.00165,W,2,12,0.53,29.3,M,-30.0,M,,0000*46
$GNGSA,A,3,13,29,10,48,16,26,18,46,15,,,,1.17,0.53,1.04,1*0D
$GNGSA,A,3,76,86,71,72,85,87,70,,,,,,1.17,0.53,1.04,2*0F
$GNGSA,A,3,30,05,15,27,02,34,09,36,,,,,1.17,0.53,1.04,3*09
$GPGSV,4,1,13,05,17,046,11,10,22,224,36,13,22,063,26,15,43,096,39,0*66
$GPGSV,4,2,13,16,26,301,29,18,66,353,40,23,63,227,17,25,03,181,,0*6A
$GPGSV,4,3,13,26,30,266,38,27,06,315,,29,52,131,41,46,46,191,40,0*6D
$GPGSV,4,4,13,48,47,185,37,0*50
$GLGSV,3,1,10,70,32,038,26,71,61,106,28,72,31,173,31,76,14,238,31,0*70
$GLGSV,3,2,10,77,21,283,21,78,05,338,,85,23,090,27,86,57,025,32,0*78
$GLGSV,3,3,10,87,33,318,27,,,,34,0*4F
$GAGSV,3,1,10,02,14,186,31,03,16,162,,05,35,109,33,06,06,034,,0*70
$GAGSV,3,2,10,09,20,052,27,15,37,289,36,27,29,300,27,30,40,237,38,0*79
$GAGSV,3,3,10,34,64,014,40,36,25,071,33,0*75
$GNGLL,3725.78037,N,12208.00165,W,080926.00,A,D*66
$GNRMC,080927.00,A,3725.78042,N,12208.00163,W,0.023,,131224,12.59,E,D,V*62
$GNVTG,,T,,M,0.023,N,0.042,K,D*3F
$GNGGA,080927.00,3725.78042,N,12208.00163,W,2,12,0.53,29.7,M,-30.0,M,,0000*47
$GNGSA,A,3,13,29,10,48,16,26,18,46,15,,,,1.17,0.53,1.04,1*0D
$GNGSA,A,3,76,86,71,72,85,87,70,,,,,,1.17,0.53,1.04,2*0F
$GNGSA,A,3,30,05,15,27,02,34,09,36,,,,,1.17,0.53,1.04,3*09
$GPGSV,4,1,13,05,17,046,09,10,22,224,36,13,22,063,26,15,43,096,39,0*6F
$GPGSV,4,2,13,16,26,301,29,18,66,353,40,23,63,227,17,25,03,181,,0*6A
$GPGSV,4,3,13,26,30,266,38,27,06,315,,29,52,131,41,46,46,191,40,0*6D
$GPGSV,4,4,13,48,47,185,37,0*50
$GLGSV,3,1,10,70,32,038,26,71,61,106,28,72,31,173,31,76,14,238,31,0*70
$GLGSV,3,2,10,77,21,283,21,78,05,338,,85,23,090,27,86,57,025,32,0*78
$GLGSV,3,3,10,87,33,318,27,,,,34,0*4F
$GAGSV,3,1,10,02,14,186,31,03,16,162,,05,35,109,33,06,06,034,,0*70
$GAGSV,3,2,10,09,20,052,26,15,37,289,36,27,29,300,28,30,40,237,38,0*77
$GAGSV,3,3,10,34,64,014,40,36,25,071,33,0*75
$GNGLL,3725.78042,N,12208.00163,W,080927.00,A,D*63
$GNRMC,080928.00,A,3725.78044,N,12208.00163,W,0.019,,131224,12.59,E,D,V*62
$GNVTG,,T,,M,0.019,N,0.036,K,D*35
$GNGGA,080928.00,3725.78044,N,12208.00163,W,2,12,0.53,29.9,M,-30.0,M,,0000*40
$GNGSA,A,3,13,29,10,48,16,26,18,46,15,,,,1.17,0.53,1.04,1*0D
$GNGSA,A,3,76,86,71,72,85,87,70,,,,,,1.17,0.53,1.04,2*0F
$GNGSA,A,3,30,05,15,27,02,34,09,36,,,,,1.17,0.53,1.04,3*09
$GPGSV,4,1,13,05,17,046,10,10,22,224,36,13,22,063,25,15,43,096,39,0*64
$GPGSV,4,2,13,16,26,301,29,18,66,353,40,23,63,227,16,25,03,181,,0*6B
$GPGSV,4,3,13,26,30,266,38,27,06,315,,29,52,131,41,46,46,191,40,0*6D
$GPGSV,4,4,13,48,47,185,37,0*50
$GLGSV,3,1,10,70,32,038,25,71,61,106,28,72,31,173,30,76,14,238,31,0*72
$GLGSV,3,2,10,77,21,283,22,78,05,338,,85,23,090,27,86,57,025,32,0*7B
$GLGSV,3,3,10,87,33,318,27,,,,35,0*4E
$GAGSV,3,1,10,02,14,186,31,03,16,162,,05,35,109,33,06,06,034,,0*70
$GAGSV,3,2,10,09,20,052,27,15,37,289,36,27,29,300,28,30,40,237,38,0*76
$GAGSV,3,3,10,34,64,014,40,36,25,071,33,0*75
$GNGLL,3725.78044,N,12208.00163,W,080928.00,A,D*6A
